[
  {
    "city": "Moscow",
    "population": 12737400,
    "country": "Russia",
    "cca2": "RU",
    "lat": 55.7522,
    "lng": 37.6156,
    "slug": null
  },
  {
    "city": "Paris",
    "population": 11346800,
    "country": "France",
    "cca2": "FR",
    "lat": 48.8534,
    "lng": 2.3488,
    "slug": null
  },
  {
    "city": "London",
    "population": 9840740,
    "country": "United Kingdom",
    "cca2": "GB",
    "lat": 51.5085,
    "lng": -0.12574,
    "slug": null
  },
  {
    "city": "Madrid",
    "population": 6810530,
    "country": "Spain",
    "cca2": "ES",
    "lat": 40.4165,
    "lng": -3.70256,
    "slug": null
  },
  {
    "city": "Barcelona",
    "population": 5733250,
    "country": "Spain",
    "cca2": "ES",
    "lat": 41.3888,
    "lng": 2.15899,
    "slug": null
  },
  {
    "city": "Saint Petersburg",
    "population": 5597340,
    "country": "Russia",
    "cca2": "RU",
    "lat": 59.9386,
    "lng": 30.3141,
    "slug": null
  },
  {
    "city": "Rome",
    "population": 4347100,
    "country": "Italy",
    "cca2": "IT",
    "lat": 41.8919,
    "lng": 12.5113,
    "slug": null
  },
  {
    "city": "Berlin",
    "population": 3580190,
    "country": "Germany",
    "cca2": "DE",
    "lat": 52.5244,
    "lng": 13.4105,
    "slug": null
  },
  {
    "city": "Milan",
    "population": 3167450,
    "country": "Italy",
    "cca2": "IT",
    "lat": 45.4643,
    "lng": 9.18951,
    "slug": null
  },
  {
    "city": "Athens",
    "population": 3155320,
    "country": "Greece",
    "cca2": "GR",
    "lat": 37.9795,
    "lng": 23.7162,
    "slug": null
  },
  {
    "city": "Lisbon",
    "population": 3028270,
    "country": "Portugal",
    "cca2": "PT",
    "lat": 38.7167,
    "lng": -9.13333,
    "slug": null
  },
  {
    "city": "Kiev",
    "population": 3018160,
    "country": "Ukraine",
    "cca2": "UA",
    "lat": 50.4547,
    "lng": 30.5238,
    "slug": null
  },
  {
    "city": "Manchester",
    "population": 2832580,
    "country": "United Kingdom",
    "cca2": "GB",
    "lat": 53.4809,
    "lng": -2.23743,
    "slug": null
  },
  {
    "city": "Birmingham",
    "population": 2704620,
    "country": "United Kingdom",
    "cca2": "GB",
    "lat": 52.4814,
    "lng": -1.89983,
    "slug": null
  },
  {
    "city": "Naples",
    "population": 2182170,
    "country": "Italy",
    "cca2": "IT",
    "lat": 40.8522,
    "lng": 14.2681,
    "slug": null
  },
  {
    "city": "Brussels",
    "population": 2141520,
    "country": "Belgium",
    "cca2": "BE",
    "lat": 50.8504,
    "lng": 4.34878,
    "slug": null
  },
  {
    "city": "Minsk",
    "population": 2070930,
    "country": "Belarus",
    "cca2": "BY",
    "lat": 53.9,
    "lng": 27.5667,
    "slug": null
  },
  {
    "city": "Vienna",
    "population": 2005500,
    "country": "Austria",
    "cca2": "AT",
    "lat": 48.2085,
    "lng": 16.3721,
    "slug": null
  },
  {
    "city": "Turin",
    "population": 1809850,
    "country": "Italy",
    "cca2": "IT",
    "lat": 45.0705,
    "lng": 7.68682,
    "slug": null
  },
  {
    "city": "Warsaw",
    "population": 1800230,
    "country": "Poland",
    "cca2": "PL",
    "lat": 52.2298,
    "lng": 21.0118,
    "slug": null
  },
  {
    "city": "Hamburg",
    "population": 1787710,
    "country": "Germany",
    "cca2": "DE",
    "lat": 53.5753,
    "lng": 10.0153,
    "slug": null
  },
  {
    "city": "Lyon",
    "population": 1787230,
    "country": "France",
    "cca2": "FR",
    "lat": 45.7485,
    "lng": 4.84671,
    "slug": null
  },
  {
    "city": "Budapest",
    "population": 1782240,
    "country": "Hungary",
    "cca2": "HU",
    "lat": 47.498,
    "lng": 19.0399,
    "slug": null
  },
  {
    "city": "Bucharest",
    "population": 1758700,
    "country": "Romania",
    "cca2": "RO",
    "lat": 44.4323,
    "lng": 26.1063,
    "slug": null
  },
  {
    "city": "Stockholm",
    "population": 1737760,
    "country": "Sweden",
    "cca2": "SE",
    "lat": 59.3326,
    "lng": 18.0649,
    "slug": null
  },
  {
    "city": "Glasgow",
    "population": 1718940,
    "country": "United Kingdom",
    "cca2": "GB",
    "lat": 55.8652,
    "lng": -4.25763,
    "slug": null
  },
  {
    "city": "Novosibirsk",
    "population": 1706660,
    "country": "Russia",
    "cca2": "RU",
    "lat": 55.0415,
    "lng": 82.9346,
    "slug": null
  },
  {
    "city": "Marseille",
    "population": 1644610,
    "country": "France",
    "cca2": "FR",
    "lat": 43.297,
    "lng": 5.38107,
    "slug": null
  },
  {
    "city": "Munich",
    "population": 1590890,
    "country": "Germany",
    "cca2": "DE",
    "lat": 48.1374,
    "lng": 11.5755,
    "slug": null
  },
  {
    "city": "Yekaterinburg",
    "population": 1537000,
    "country": "Russia",
    "cca2": "RU",
    "lat": 56.8519,
    "lng": 60.6122,
    "slug": null
  },
  {
    "city": "Zurich",
    "population": 1455100,
    "country": "Switzerland",
    "cca2": "CH",
    "lat": 47.3667,
    "lng": 8.55,
    "slug": null
  },
  {
    "city": "Kharkiv",
    "population": 1415820,
    "country": "Ukraine",
    "cca2": "UA",
    "lat": 49.9808,
    "lng": 36.2527,
    "slug": null
  },
  {
    "city": "Belgrade",
    "population": 1412950,
    "country": "Serbia",
    "cca2": "RS",
    "lat": 44.804,
    "lng": 20.4651,
    "slug": null
  },
  {
    "city": "Copenhagen",
    "population": 1400740,
    "country": "Denmark",
    "cca2": "DK",
    "lat": 55.6759,
    "lng": 12.5655,
    "slug": null
  },
  {
    "city": "Helsinki",
    "population": 1354890,
    "country": "Finland",
    "cca2": "FI",
    "lat": 60.1695,
    "lng": 24.9354,
    "slug": null
  },
  {
    "city": "Porto",
    "population": 1334200,
    "country": "Portugal",
    "cca2": "PT",
    "lat": 41.1496,
    "lng": -8.61099,
    "slug": null
  },
  {
    "city": "Prague",
    "population": 1331940,
    "country": "Czech Republic",
    "cca2": "CZ",
    "lat": 50.088,
    "lng": 14.4208,
    "slug": null
  },
  {
    "city": "Kazan",
    "population": 1299580,
    "country": "Russia",
    "cca2": "RU",
    "lat": 55.7887,
    "lng": 49.1221,
    "slug": null
  },
  {
    "city": "Dublin",
    "population": 1299110,
    "country": "Ireland",
    "cca2": "IE",
    "lat": 53.3331,
    "lng": -6.24889,
    "slug": null
  },
  {
    "city": "Sofia",
    "population": 1286460,
    "country": "Bulgaria",
    "cca2": "BG",
    "lat": 42.6975,
    "lng": 23.3242,
    "slug": null
  },
  {
    "city": "Nizhniy Novgorod",
    "population": 1249760,
    "country": "Russia",
    "cca2": "RU",
    "lat": 56.3287,
    "lng": 44.002,
    "slug": null
  },
  {
    "city": "Chelyabinsk",
    "population": 1246210,
    "country": "Russia",
    "cca2": "RU",
    "lat": 55.154,
    "lng": 61.4291,
    "slug": null
  },
  {
    "city": "Amsterdam",
    "population": 1189200,
    "country": "Netherlands",
    "cca2": "NL",
    "lat": 52.374,
    "lng": 4.88969,
    "slug": null
  },
  {
    "city": "Omsk",
    "population": 1180820,
    "country": "Russia",
    "cca2": "RU",
    "lat": 54.9924,
    "lng": 73.3686,
    "slug": null
  },
  {
    "city": "Krasnoyarsk",
    "population": 1177840,
    "country": "Russia",
    "cca2": "RU",
    "lat": 56.0184,
    "lng": 92.8672,
    "slug": null
  },
  {
    "city": "Samara",
    "population": 1153710,
    "country": "Russia",
    "cca2": "RU",
    "lat": 53.2001,
    "lng": 50.15,
    "slug": null
  },
  {
    "city": "Ufa",
    "population": 1148400,
    "country": "Russia",
    "cca2": "RU",
    "lat": 54.7431,
    "lng": 55.9678,
    "slug": null
  },
  {
    "city": "Oslo",
    "population": 1115580,
    "country": "Norway",
    "cca2": "NO",
    "lat": 59.9127,
    "lng": 10.7461,
    "slug": null
  },
  {
    "city": "Lille",
    "population": 1091590,
    "country": "France",
    "cca2": "FR",
    "lat": 50.633,
    "lng": 3.05858,
    "slug": null
  },
  {
    "city": "Voronezh",
    "population": 1086000,
    "country": "Russia",
    "cca2": "RU",
    "lat": 51.672,
    "lng": 39.1843,
    "slug": null
  },
  {
    "city": "Perm",
    "population": 1085990,
    "country": "Russia",
    "cca2": "RU",
    "lat": 58.0105,
    "lng": 56.2502,
    "slug": null
  },
  {
    "city": "Toulouse",
    "population": 1080180,
    "country": "France",
    "cca2": "FR",
    "lat": 43.6043,
    "lng": 1.44367,
    "slug": null
  },
  {
    "city": "Rostov-na-Donu",
    "population": 1074482,
    "country": "Russia",
    "cca2": "RU",
    "lat": 47.2313,
    "lng": 39.7233,
    "slug": null
  },
  {
    "city": "Antwerp",
    "population": 1064870,
    "country": "Belgium",
    "cca2": "BE",
    "lat": 51.2199,
    "lng": 4.40346,
    "slug": null
  },
  {
    "city": "Rotterdam",
    "population": 1026250,
    "country": "Netherlands",
    "cca2": "NL",
    "lat": 51.9225,
    "lng": 4.47917,
    "slug": null
  },
  {
    "city": "Bordeaux",
    "population": 1018070,
    "country": "France",
    "cca2": "FR",
    "lat": 44.8404,
    "lng": -0.5805,
    "slug": null
  },
  {
    "city": "Krasnodar",
    "population": 1017530,
    "country": "Russia",
    "cca2": "RU",
    "lat": 45.0448,
    "lng": 38.976,
    "slug": null
  },
  {
    "city": "Odessa",
    "population": 1001558,
    "country": "Ukraine",
    "cca2": "UA",
    "lat": 46.4775,
    "lng": 30.7326,
    "slug": null
  },
  {
    "city": "Volgograd",
    "population": 992268,
    "country": "Russia",
    "cca2": "RU",
    "lat": 48.7194,
    "lng": 44.5018,
    "slug": null
  },
  {
    "city": "Southampton",
    "population": 966741,
    "country": "United Kingdom",
    "cca2": "GB",
    "lat": 50.9039,
    "lng": -1.40428,
    "slug": null
  },
  {
    "city": "Koeln",
    "population": 963395,
    "country": "Germany",
    "cca2": "DE",
    "lat": 50.9333,
    "lng": 6.95,
    "slug": null
  },
  {
    "city": "Nice",
    "population": 956195,
    "country": "France",
    "cca2": "FR",
    "lat": 43.7031,
    "lng": 7.26608,
    "slug": null
  },
  {
    "city": "Dnipro",
    "population": 931255,
    "country": "Ukraine",
    "cca2": "UA",
    "lat": 48.4593,
    "lng": 35.0387,
    "slug": null
  },
  {
    "city": "Liverpool",
    "population": 928997,
    "country": "United Kingdom",
    "cca2": "GB",
    "lat": 53.4106,
    "lng": -2.97794,
    "slug": null
  },
  {
    "city": "Tyumen",
    "population": 926519,
    "country": "Russia",
    "cca2": "RU",
    "lat": 57.1522,
    "lng": 65.5272,
    "slug": null
  },
  {
    "city": "Bergamo",
    "population": 923221,
    "country": "Italy",
    "cca2": "IT",
    "lat": 45.696,
    "lng": 9.66721,
    "slug": null
  },
  {
    "city": "Donetsk",
    "population": 876063,
    "country": "Ukraine",
    "cca2": "UA",
    "lat": 48.023,
    "lng": 37.8022,
    "slug": null
  },
  {
    "city": "Palermo",
    "population": 851282,
    "country": "Italy",
    "cca2": "IT",
    "lat": 38.132,
    "lng": 13.3356,
    "slug": null
  },
  {
    "city": "Valencia",
    "population": 841354,
    "country": "Spain",
    "cca2": "ES",
    "lat": 39.4697,
    "lng": -0.37739,
    "slug": null
  },
  {
    "city": "Saratov",
    "population": 837323,
    "country": "Russia",
    "cca2": "RU",
    "lat": 51.5406,
    "lng": 46.0086,
    "slug": null
  },
  {
    "city": "Newcastle upon Tyne",
    "population": 834242,
    "country": "United Kingdom",
    "cca2": "GB",
    "lat": 54.9733,
    "lng": -1.61396,
    "slug": null
  },
  {
    "city": "Nottingham",
    "population": 819334,
    "country": "United Kingdom",
    "cca2": "GB",
    "lat": 52.9536,
    "lng": -1.15047,
    "slug": null
  },
  {
    "city": "Bologna",
    "population": 819297,
    "country": "Italy",
    "cca2": "IT",
    "lat": 44.4938,
    "lng": 11.3387,
    "slug": null
  },
  {
    "city": "Thessaloniki",
    "population": 815472,
    "country": "Greece",
    "cca2": "GR",
    "lat": 40.6436,
    "lng": 22.9309,
    "slug": null
  },
  {
    "city": "Zaporizhia",
    "population": 796217,
    "country": "Ukraine",
    "cca2": "UA",
    "lat": 47.8229,
    "lng": 35.1903,
    "slug": null
  },
  {
    "city": "Krakow",
    "population": 769375,
    "country": "Poland",
    "cca2": "PL",
    "lat": 50.0614,
    "lng": 19.9366,
    "slug": null
  },
  {
    "city": "Sheffield",
    "population": 756783,
    "country": "United Kingdom",
    "cca2": "GB",
    "lat": 53.383,
    "lng": -1.4659,
    "slug": null
  },
  {
    "city": "Zaragoza",
    "population": 742924,
    "country": "Spain",
    "cca2": "ES",
    "lat": 41.6561,
    "lng": -0.87734,
    "slug": null
  },
  {
    "city": "The Hague",
    "population": 724903,
    "country": "Netherlands",
    "cca2": "NL",
    "lat": 52.0767,
    "lng": 4.29861,
    "slug": null
  },
  {
    "city": "Bristol",
    "population": 720052,
    "country": "United Kingdom",
    "cca2": "GB",
    "lat": 51.4552,
    "lng": -2.59665,
    "slug": null
  },
  {
    "city": "Lviv",
    "population": 718308,
    "country": "Ukraine",
    "cca2": "UA",
    "lat": 49.8383,
    "lng": 24.0232,
    "slug": null
  },
  {
    "city": "Florence",
    "population": 713615,
    "country": "Italy",
    "cca2": "IT",
    "lat": 43.7793,
    "lng": 11.2463,
    "slug": null
  },
  {
    "city": "Nantes",
    "population": 711464,
    "country": "France",
    "cca2": "FR",
    "lat": 47.2173,
    "lng": -1.55336,
    "slug": null
  },
  {
    "city": "Sevilla",
    "population": 703206,
    "country": "Spain",
    "cca2": "ES",
    "lat": 37.3828,
    "lng": -5.97317,
    "slug": null
  },
  {
    "city": "Tol'yatti",
    "population": 702879,
    "country": "Russia",
    "cca2": "RU",
    "lat": 53.5303,
    "lng": 49.3461,
    "slug": null
  },
  {
    "city": "Padova",
    "population": 700391,
    "country": "Italy",
    "cca2": "IT",
    "lat": 45.408,
    "lng": 11.8859,
    "slug": null
  },
  {
    "city": "Liege",
    "population": 688582,
    "country": "Belgium",
    "cca2": "BE",
    "lat": 50.6337,
    "lng": 5.56749,
    "slug": null
  },
  {
    "city": "Zagreb",
    "population": 684359,
    "country": "Croatia",
    "cca2": "HR",
    "lat": 45.8144,
    "lng": 15.978,
    "slug": null
  },
  {
    "city": "Genoa",
    "population": 674241,
    "country": "Italy",
    "cca2": "IT",
    "lat": 44.4048,
    "lng": 8.94439,
    "slug": null
  },
  {
    "city": "Busto Arsizio",
    "population": 668674,
    "country": "Italy",
    "cca2": "IT",
    "lat": 45.6113,
    "lng": 8.84914,
    "slug": null
  },
  {
    "city": "Izhevsk",
    "population": 652790,
    "country": "Russia",
    "cca2": "RU",
    "lat": 56.8498,
    "lng": 53.2045,
    "slug": null
  },
  {
    "city": "Belfast",
    "population": 651982,
    "country": "United Kingdom",
    "cca2": "GB",
    "lat": 54.5968,
    "lng": -5.92541,
    "slug": null
  },
  {
    "city": "Lodz",
    "population": 650066,
    "country": "Poland",
    "cca2": "PL",
    "lat": 51.7706,
    "lng": 19.4739,
    "slug": null
  },
  {
    "city": "Frankfurt am Main",
    "population": 650000,
    "country": "Germany",
    "cca2": "DE",
    "lat": 50.1155,
    "lng": 8.68417,
    "slug": null
  },
  {
    "city": "Irkutsk",
    "population": 648468,
    "country": "Russia",
    "cca2": "RU",
    "lat": 52.2978,
    "lng": 104.296,
    "slug": null
  },
  {
    "city": "Geneva",
    "population": 644513,
    "country": "Switzerland",
    "cca2": "CH",
    "lat": 46.2022,
    "lng": 6.14569,
    "slug": null
  },
  {
    "city": "Khabarovsk",
    "population": 644284,
    "country": "Russia",
    "cca2": "RU",
    "lat": 48.4827,
    "lng": 135.084,
    "slug": null
  },
  {
    "city": "Verona",
    "population": 644081,
    "country": "Italy",
    "cca2": "IT",
    "lat": 45.4299,
    "lng": 10.9844,
    "slug": null
  },
  {
    "city": "Gothenburg",
    "population": 643993,
    "country": "Sweden",
    "cca2": "SE",
    "lat": 57.7072,
    "lng": 11.9668,
    "slug": null
  },
  {
    "city": "Duesseldorf",
    "population": 642888,
    "country": "Germany",
    "cca2": "DE",
    "lat": 51.2217,
    "lng": 6.77616,
    "slug": null
  },
  {
    "city": "Barnaul",
    "population": 642415,
    "country": "Russia",
    "cca2": "RU",
    "lat": 53.3606,
    "lng": 83.7636,
    "slug": null
  },
  {
    "city": "Wroclaw",
    "population": 642228,
    "country": "Poland",
    "cca2": "PL",
    "lat": 51.1,
    "lng": 17.0333,
    "slug": null
  },
  {
    "city": "Seregno",
    "population": 638979,
    "country": "Italy",
    "cca2": "IT",
    "lat": 45.65,
    "lng": 9.20548,
    "slug": null
  },
  {
    "city": "Stuttgart",
    "population": 636840,
    "country": "Germany",
    "cca2": "DE",
    "lat": 48.7823,
    "lng": 9.17702,
    "slug": null
  },
  {
    "city": "Brighton",
    "population": 632475,
    "country": "United Kingdom",
    "cca2": "GB",
    "lat": 50.8284,
    "lng": -0.13947,
    "slug": null
  },
  {
    "city": "Bari",
    "population": 625606,
    "country": "Italy",
    "cca2": "IT",
    "lat": 41.1115,
    "lng": 16.8554,
    "slug": null
  },
  {
    "city": "Ulyanovsk",
    "population": 622745,
    "country": "Russia",
    "cca2": "RU",
    "lat": 54.3282,
    "lng": 48.3866,
    "slug": null
  },
  {
    "city": "Skopje",
    "population": 620825,
    "country": "North Macedonia",
    "cca2": "MK",
    "lat": 41.9965,
    "lng": 21.4314,
    "slug": null
  },
  {
    "city": "Riga",
    "population": 615764,
    "country": "Latvia",
    "cca2": "LV",
    "lat": 56.946,
    "lng": 24.1059,
    "slug": null
  },
  {
    "city": "Yaroslavl",
    "population": 613355,
    "country": "Russia",
    "cca2": "RU",
    "lat": 57.6299,
    "lng": 39.8737,
    "slug": null
  },
  {
    "city": "Tomsk",
    "population": 611949,
    "country": "Russia",
    "cca2": "RU",
    "lat": 56.4977,
    "lng": 84.9744,
    "slug": null
  },
  {
    "city": "Vladivostok",
    "population": 609863,
    "country": "Russia",
    "cca2": "RU",
    "lat": 43.1056,
    "lng": 131.874,
    "slug": null
  },
  {
    "city": "Leipzig",
    "population": 609135,
    "country": "Germany",
    "cca2": "DE",
    "lat": 51.3396,
    "lng": 12.3713,
    "slug": null
  },
  {
    "city": "Makhachkala",
    "population": 602853,
    "country": "Russia",
    "cca2": "RU",
    "lat": 42.9764,
    "lng": 47.5024,
    "slug": null
  },
  {
    "city": "Malaga",
    "population": 595139,
    "country": "Spain",
    "cca2": "ES",
    "lat": 36.7202,
    "lng": -4.42034,
    "slug": null
  },
  {
    "city": "Kryvyi Rih",
    "population": 594834,
    "country": "Ukraine",
    "cca2": "UA",
    "lat": 47.9097,
    "lng": 33.3804,
    "slug": null
  },
  {
    "city": "Dresden",
    "population": 594326,
    "country": "Germany",
    "cca2": "DE",
    "lat": 51.0509,
    "lng": 13.7383,
    "slug": null
  },
  {
    "city": "Toulon",
    "population": 592764,
    "country": "France",
    "cca2": "FR",
    "lat": 43.1244,
    "lng": 5.92836,
    "slug": null
  },
  {
    "city": "Dortmund",
    "population": 590432,
    "country": "Germany",
    "cca2": "DE",
    "lat": 51.5149,
    "lng": 7.466,
    "slug": null
  },
  {
    "city": "Catania",
    "population": 588820,
    "country": "Italy",
    "cca2": "IT",
    "lat": 37.4922,
    "lng": 15.0704,
    "slug": null
  },
  {
    "city": "Essen",
    "population": 580594,
    "country": "Germany",
    "cca2": "DE",
    "lat": 51.4566,
    "lng": 7.01228,
    "slug": null
  },
  {
    "city": "Basel",
    "population": 578727,
    "country": "Switzerland",
    "cca2": "CH",
    "lat": 47.5584,
    "lng": 7.57327,
    "slug": null
  },
  {
    "city": "Khabarovsk Vtoroy",
    "population": 578303,
    "country": "Russia",
    "cca2": "RU",
    "lat": 48.4378,
    "lng": 135.133,
    "slug": null
  },
  {
    "city": "Gomel",
    "population": 575827,
    "country": "Belarus",
    "cca2": "BY",
    "lat": 52.4345,
    "lng": 30.9754,
    "slug": null
  },
  {
    "city": "Utrecht",
    "population": 575526,
    "country": "Netherlands",
    "cca2": "NL",
    "lat": 52.0908,
    "lng": 5.12222,
    "slug": null
  },
  {
    "city": "Leicester",
    "population": 575352,
    "country": "United Kingdom",
    "cca2": "GB",
    "lat": 52.6386,
    "lng": -1.13169,
    "slug": null
  },
  {
    "city": "Kemerovo",
    "population": 570586,
    "country": "Russia",
    "cca2": "RU",
    "lat": 55.3333,
    "lng": 86.0833,
    "slug": null
  },
  {
    "city": "Orenburg",
    "population": 570039,
    "country": "Russia",
    "cca2": "RU",
    "lat": 51.7727,
    "lng": 55.0988,
    "slug": null
  },
  {
    "city": "Balashikha",
    "population": 569163,
    "country": "Russia",
    "cca2": "RU",
    "lat": 55.8094,
    "lng": 37.9581,
    "slug": null
  },
  {
    "city": "Bremen",
    "population": 568991,
    "country": "Germany",
    "cca2": "DE",
    "lat": 53.0752,
    "lng": 8.80777,
    "slug": null
  },
  {
    "city": "Edinburgh",
    "population": 563534,
    "country": "United Kingdom",
    "cca2": "GB",
    "lat": 55.9521,
    "lng": -3.19648,
    "slug": null
  },
  {
    "city": "Pristina",
    "population": 550000,
    "country": "Kosovo",
    "cca2": "XK",
    "lat": 42.6727,
    "lng": 21.1669,
    "slug": null
  },
  {
    "city": "Novokuznetsk",
    "population": 546951,
    "country": "Russia",
    "cca2": "RU",
    "lat": 53.7557,
    "lng": 87.1099,
    "slug": null
  },
  {
    "city": "Grenoble",
    "population": 543623,
    "country": "France",
    "cca2": "FR",
    "lat": 45.1716,
    "lng": 5.72239,
    "slug": null
  },
  {
    "city": "Vilnius",
    "population": 541517,
    "country": "Lithuania",
    "cca2": "LT",
    "lat": 54.6892,
    "lng": 25.2798,
    "slug": null
  },
  {
    "city": "Hannover",
    "population": 538777,
    "country": "Germany",
    "cca2": "DE",
    "lat": 52.3705,
    "lng": 9.73322,
    "slug": null
  },
  {
    "city": "Tirana",
    "population": 535702,
    "country": "Albania",
    "cca2": "AL",
    "lat": 41.3275,
    "lng": 19.8189,
    "slug": null
  },
  {
    "city": "Astrakhan",
    "population": 534778,
    "country": "Russia",
    "cca2": "RU",
    "lat": 46.3497,
    "lng": 48.0408,
    "slug": null
  },
  {
    "city": "Duisburg",
    "population": 528993,
    "country": "Germany",
    "cca2": "DE",
    "lat": 51.4325,
    "lng": 6.76516,
    "slug": null
  },
  {
    "city": "Bournemouth",
    "population": 526845,
    "country": "United Kingdom",
    "cca2": "GB",
    "lat": 50.7205,
    "lng": -1.8795,
    "slug": null
  },
  {
    "city": "Penza",
    "population": 520546,
    "country": "Russia",
    "cca2": "RU",
    "lat": 53.2007,
    "lng": 45.0046,
    "slug": null
  },
  {
    "city": "Kirov",
    "population": 520243,
    "country": "Russia",
    "cca2": "RU",
    "lat": 58.5966,
    "lng": 49.6601,
    "slug": null
  },
  {
    "city": "Kirov",
    "population": 520243,
    "country": "Russia",
    "cca2": "RU",
    "lat": 54.0669,
    "lng": 34.2995,
    "slug": null
  },
  {
    "city": "Ryazan'",
    "population": 520173,
    "country": "Russia",
    "cca2": "RU",
    "lat": 54.6269,
    "lng": 39.6916,
    "slug": null
  },
  {
    "city": "Poznan",
    "population": 518274,
    "country": "Poland",
    "cca2": "PL",
    "lat": 52.4069,
    "lng": 16.9299,
    "slug": null
  },
  {
    "city": "Murcia",
    "population": 517240,
    "country": "Spain",
    "cca2": "ES",
    "lat": 37.987,
    "lng": -1.13004,
    "slug": null
  },
  {
    "city": "Cheboksary",
    "population": 517136,
    "country": "Russia",
    "cca2": "RU",
    "lat": 56.1322,
    "lng": 47.2519,
    "slug": null
  },
  {
    "city": "Mykolayiv",
    "population": 510840,
    "country": "Ukraine",
    "cca2": "UA",
    "lat": 46.9659,
    "lng": 31.9974,
    "slug": null
  },
  {
    "city": "Naberezhnyye Chelny",
    "population": 509870,
    "country": "Russia",
    "cca2": "RU",
    "lat": 55.7254,
    "lng": 52.4112,
    "slug": null
  },
  {
    "city": "Kalininskiy",
    "population": 504641,
    "country": "Russia",
    "cca2": "RU",
    "lat": 59.9967,
    "lng": 30.3899,
    "slug": null
  },
  {
    "city": "Lipetsk",
    "population": 502842,
    "country": "Russia",
    "cca2": "RU",
    "lat": 52.6031,
    "lng": 39.5708,
    "slug": null
  },
  {
    "city": "Nuernberg",
    "population": 499237,
    "country": "Germany",
    "cca2": "DE",
    "lat": 49.4542,
    "lng": 11.0775,
    "slug": null
  },
  {
    "city": "Brescia",
    "population": 496260,
    "country": "Italy",
    "cca2": "IT",
    "lat": 45.5356,
    "lng": 10.2147,
    "slug": null
  },
  {
    "city": "Cardiff",
    "population": 495378,
    "country": "United Kingdom",
    "cca2": "GB",
    "lat": 51.48,
    "lng": -3.18,
    "slug": null
  },
  {
    "city": "Kaliningrad",
    "population": 495031,
    "country": "Russia",
    "cca2": "RU",
    "lat": 54.7065,
    "lng": 20.511,
    "slug": null
  },
  {
    "city": "Como",
    "population": 492616,
    "country": "Italy",
    "cca2": "IT",
    "lat": 45.8082,
    "lng": 9.0832,
    "slug": null
  },
  {
    "city": "Strasbourg",
    "population": 489811,
    "country": "France",
    "cca2": "FR",
    "lat": 48.5839,
    "lng": 7.74553,
    "slug": null
  },
  {
    "city": "Montpellier",
    "population": 486923,
    "country": "France",
    "cca2": "FR",
    "lat": 43.6109,
    "lng": 3.87723,
    "slug": null
  },
  {
    "city": "Palma",
    "population": 485878,
    "country": "Spain",
    "cca2": "ES",
    "lat": 39.5694,
    "lng": 2.65024,
    "slug": null
  },
  {
    "city": "Chisinau",
    "population": 484352,
    "country": "Moldova",
    "cca2": "MD",
    "lat": 47.0056,
    "lng": 28.8575,
    "slug": null
  },
  {
    "city": "Avignon",
    "population": 483655,
    "country": "France",
    "cca2": "FR",
    "lat": 43.9483,
    "lng": 4.80892,
    "slug": null
  },
  {
    "city": "Sochi",
    "population": 481033,
    "country": "Russia",
    "cca2": "RU",
    "lat": 43.5992,
    "lng": 39.7257,
    "slug": null
  },
  {
    "city": "Gent",
    "population": 479034,
    "country": "Belgium",
    "cca2": "BE",
    "lat": 51.05,
    "lng": 3.71667,
    "slug": null
  },
  {
    "city": "Cagliari",
    "population": 478929,
    "country": "Italy",
    "cca2": "IT",
    "lat": 39.2305,
    "lng": 9.11917,
    "slug": null
  },
  {
    "city": "Rouen",
    "population": 478713,
    "country": "France",
    "cca2": "FR",
    "lat": 49.4431,
    "lng": 1.09932,
    "slug": null
  },
  {
    "city": "Mykolaiv",
    "population": 476414,
    "country": "Ukraine",
    "cca2": "UA",
    "lat": 49.5237,
    "lng": 23.9852,
    "slug": null
  },
  {
    "city": "Kursk",
    "population": 475607,
    "country": "Russia",
    "cca2": "RU",
    "lat": 51.7373,
    "lng": 36.1874,
    "slug": null
  },
  {
    "city": "Lausanne",
    "population": 469802,
    "country": "Switzerland",
    "cca2": "CH",
    "lat": 46.516,
    "lng": 6.63282,
    "slug": null
  },
  {
    "city": "Latina",
    "population": 467352,
    "country": "Italy",
    "cca2": "IT",
    "lat": 41.4661,
    "lng": 12.9043,
    "slug": null
  },
  {
    "city": "Gdansk",
    "population": 465553,
    "country": "Poland",
    "cca2": "PL",
    "lat": 54.3521,
    "lng": 18.6464,
    "slug": null
  },
  {
    "city": "Tula",
    "population": 462035,
    "country": "Russia",
    "cca2": "RU",
    "lat": 54.1961,
    "lng": 37.6182,
    "slug": null
  },
  {
    "city": "Taranto",
    "population": 461729,
    "country": "Italy",
    "cca2": "IT",
    "lat": 40.4644,
    "lng": 17.2471,
    "slug": null
  },
  {
    "city": "Tallinn",
    "population": 457657,
    "country": "Estonia",
    "cca2": "EE",
    "lat": 59.437,
    "lng": 24.7535,
    "slug": null
  },
  {
    "city": "Leeds",
    "population": 455123,
    "country": "United Kingdom",
    "cca2": "GB",
    "lat": 53.7965,
    "lng": -1.54785,
    "slug": null
  },
  {
    "city": "Coventry",
    "population": 454584,
    "country": "United Kingdom",
    "cca2": "GB",
    "lat": 52.4066,
    "lng": -1.51217,
    "slug": null
  },
  {
    "city": "Ulan-Ude",
    "population": 451894,
    "country": "Russia",
    "cca2": "RU",
    "lat": 51.8272,
    "lng": 107.606,
    "slug": null
  },
  {
    "city": "Bern",
    "population": 448150,
    "country": "Switzerland",
    "cca2": "CH",
    "lat": 46.9481,
    "lng": 7.44744,
    "slug": null
  },
  {
    "city": "Bratislava",
    "population": 443679,
    "country": "Slovakia",
    "cca2": "SK",
    "lat": 48.1482,
    "lng": 17.1067,
    "slug": null
  },
  {
    "city": "Caserta",
    "population": 433012,
    "country": "Italy",
    "cca2": "IT",
    "lat": 41.0726,
    "lng": 14.3323,
    "slug": null
  },
  {
    "city": "Tver",
    "population": 427338,
    "country": "Russia",
    "cca2": "RU",
    "lat": 56.8584,
    "lng": 35.9006,
    "slug": null
  },
  {
    "city": "Mariupol",
    "population": 425923,
    "country": "Ukraine",
    "cca2": "UA",
    "lat": 47.0951,
    "lng": 37.5413,
    "slug": null
  },
  {
    "city": "Salerno",
    "population": 423216,
    "country": "Italy",
    "cca2": "IT",
    "lat": 40.6754,
    "lng": 14.7933,
    "slug": null
  },
  {
    "city": "Magnitogorsk",
    "population": 420923,
    "country": "Russia",
    "cca2": "RU",
    "lat": 53.4186,
    "lng": 59.0472,
    "slug": null
  },
  {
    "city": "Belgorod",
    "population": 420057,
    "country": "Russia",
    "cca2": "RU",
    "lat": 50.6107,
    "lng": 36.5802,
    "slug": null
  },
  {
    "city": "Charleroi",
    "population": 419244,
    "country": "Belgium",
    "cca2": "BE",
    "lat": 50.4114,
    "lng": 4.44448,
    "slug": null
  },
  {
    "city": "Surgut",
    "population": 413754,
    "country": "Russia",
    "cca2": "RU",
    "lat": 61.25,
    "lng": 73.4167,
    "slug": null
  },
  {
    "city": "Wandsbek",
    "population": 411422,
    "country": "Germany",
    "cca2": "DE",
    "lat": 53.5833,
    "lng": 10.083,
    "slug": null
  },
  {
    "city": "Sevastopol",
    "population": 401552,
    "country": "Ukraine",
    "cca2": "UA",
    "lat": 44.5888,
    "lng": 33.5224,
    "slug": null
  },
  {
    "city": "Ivanovo",
    "population": 398393,
    "country": "Russia",
    "cca2": "RU",
    "lat": 56.9972,
    "lng": 40.9714,
    "slug": null
  },
  {
    "city": "Khmelnytskyi",
    "population": 398346,
    "country": "Ukraine",
    "cca2": "UA",
    "lat": 49.4216,
    "lng": 26.9965,
    "slug": null
  },
  {
    "city": "Middlesbrough",
    "population": 397527,
    "country": "United Kingdom",
    "cca2": "GB",
    "lat": 54.5762,
    "lng": -1.23483,
    "slug": null
  },
  {
    "city": "Stoke-on-Trent",
    "population": 396812,
    "country": "United Kingdom",
    "cca2": "GB",
    "lat": 53.0042,
    "lng": -2.18538,
    "slug": null
  },
  {
    "city": "Szczecin",
    "population": 396654,
    "country": "Poland",
    "cca2": "PL",
    "lat": 53.4289,
    "lng": 14.553,
    "slug": null
  },
  {
    "city": "Bryansk",
    "population": 390872,
    "country": "Russia",
    "cca2": "RU",
    "lat": 53.2521,
    "lng": 34.3717,
    "slug": null
  },
  {
    "city": "Treviso",
    "population": 386170,
    "country": "Italy",
    "cca2": "IT",
    "lat": 45.6667,
    "lng": 12.2416,
    "slug": null
  },
  {
    "city": "Luhansk",
    "population": 386097,
    "country": "Ukraine",
    "cca2": "UA",
    "lat": 48.5671,
    "lng": 39.3171,
    "slug": null
  },
  {
    "city": "Sector 3",
    "population": 385439,
    "country": "Romania",
    "cca2": "RO",
    "lat": 44.4234,
    "lng": 26.1687,
    "slug": null
  },
  {
    "city": "Pescara",
    "population": 384545,
    "country": "Italy",
    "cca2": "IT",
    "lat": 42.4584,
    "lng": 14.2028,
    "slug": null
  },
  {
    "city": "Vitebsk",
    "population": 384385,
    "country": "Belarus",
    "cca2": "BY",
    "lat": 55.1904,
    "lng": 30.2049,
    "slug": null
  },
  {
    "city": "Bochum",
    "population": 382181,
    "country": "Germany",
    "cca2": "DE",
    "lat": 51.4817,
    "lng": 7.21648,
    "slug": null
  },
  {
    "city": "Las Palmas de Gran Canaria",
    "population": 381847,
    "country": "Spain",
    "cca2": "ES",
    "lat": 28.0997,
    "lng": -15.4134,
    "slug": null
  },
  {
    "city": "Saint-Etienne",
    "population": 381552,
    "country": "France",
    "cca2": "FR",
    "lat": 45.4339,
    "lng": 4.39,
    "slug": null
  },
  {
    "city": "Alicante",
    "population": 380675,
    "country": "Spain",
    "cca2": "ES",
    "lat": 38.3452,
    "lng": -0.48149,
    "slug": null
  },
  {
    "city": "Brno",
    "population": 380587,
    "country": "Czech Republic",
    "cca2": "CZ",
    "lat": 49.1952,
    "lng": 16.608,
    "slug": null
  },
  {
    "city": "Bochum-Hordel",
    "population": 380000,
    "country": "Germany",
    "cca2": "DE",
    "lat": 51.5017,
    "lng": 7.1756,
    "slug": null
  },
  {
    "city": "Makiyivka",
    "population": 376610,
    "country": "Ukraine",
    "cca2": "UA",
    "lat": 48.0478,
    "lng": 37.9258,
    "slug": null
  },
  {
    "city": "Kaunas",
    "population": 374643,
    "country": "Lithuania",
    "cca2": "LT",
    "lat": 54.9027,
    "lng": 23.9096,
    "slug": null
  },
  {
    "city": "Eindhoven",
    "population": 372720,
    "country": "Netherlands",
    "cca2": "NL",
    "lat": 51.4408,
    "lng": 5.47778,
    "slug": null
  },
  {
    "city": "Rennes",
    "population": 371499,
    "country": "France",
    "cca2": "FR",
    "lat": 48.112,
    "lng": -1.67429,
    "slug": null
  },
  {
    "city": "Brest",
    "population": 370503,
    "country": "Belarus",
    "cca2": "BY",
    "lat": 52.0975,
    "lng": 23.6877,
    "slug": null
  },
  {
    "city": "Tours",
    "population": 369653,
    "country": "France",
    "cca2": "FR",
    "lat": 47.3948,
    "lng": 0.70398,
    "slug": null
  },
  {
    "city": "Mahilyow",
    "population": 369200,
    "country": "Belarus",
    "cca2": "BY",
    "lat": 53.9168,
    "lng": 30.3449,
    "slug": null
  },
  {
    "city": "Sector 6",
    "population": 367760,
    "country": "Romania",
    "cca2": "RO",
    "lat": 44.4358,
    "lng": 26.0165,
    "slug": null
  },
  {
    "city": "Bethune",
    "population": 364898,
    "country": "France",
    "cca2": "FR",
    "lat": 50.5333,
    "lng": 2.63333,
    "slug": null
  },
  {
    "city": "Modena",
    "population": 364037,
    "country": "Italy",
    "cca2": "IT",
    "lat": 44.6478,
    "lng": 10.9254,
    "slug": null
  },
  {
    "city": "Chita",
    "population": 363732,
    "country": "Russia",
    "cca2": "RU",
    "lat": 52.0317,
    "lng": 113.501,
    "slug": null
  },
  {
    "city": "Stavropol'",
    "population": 363064,
    "country": "Russia",
    "cca2": "RU",
    "lat": 45.0428,
    "lng": 41.9734,
    "slug": null
  },
  {
    "city": "Vladimir",
    "population": 360331,
    "country": "Russia",
    "cca2": "RU",
    "lat": 56.1366,
    "lng": 40.3966,
    "slug": null
  },
  {
    "city": "Arkhangel'sk",
    "population": 356051,
    "country": "Russia",
    "cca2": "RU",
    "lat": 64.5401,
    "lng": 40.5433,
    "slug": null
  },
  {
    "city": "Reading",
    "population": 355596,
    "country": "United Kingdom",
    "cca2": "GB",
    "lat": 51.4562,
    "lng": -0.97113,
    "slug": null
  },
  {
    "city": "Kaluga",
    "population": 352870,
    "country": "Russia",
    "cca2": "RU",
    "lat": 54.5293,
    "lng": 36.2754,
    "slug": null
  },
  {
    "city": "Vinnytsia",
    "population": 352115,
    "country": "Ukraine",
    "cca2": "UA",
    "lat": 49.2328,
    "lng": 28.481,
    "slug": null
  },
  {
    "city": "Tampere",
    "population": 350951,
    "country": "Finland",
    "cca2": "FI",
    "lat": 61.4991,
    "lng": 23.7871,
    "slug": null
  },
  {
    "city": "Sunderland",
    "population": 349162,
    "country": "United Kingdom",
    "cca2": "GB",
    "lat": 54.9047,
    "lng": -1.38222,
    "slug": null
  },
  {
    "city": "Sarajevo",
    "population": 348404,
    "country": "Bosnia and Herzegovina",
    "cca2": "BA",
    "lat": 43.8486,
    "lng": 18.3564,
    "slug": null
  },
  {
    "city": "Wuppertal",
    "population": 348119,
    "country": "Germany",
    "cca2": "DE",
    "lat": 51.2563,
    "lng": 7.14816,
    "slug": null
  },
  {
    "city": "Mannheim",
    "population": 347710,
    "country": "Germany",
    "cca2": "DE",
    "lat": 49.4891,
    "lng": 8.46694,
    "slug": null
  },
  {
    "city": "Plovdiv",
    "population": 347170,
    "country": "Bulgaria",
    "cca2": "BG",
    "lat": 42.15,
    "lng": 24.75,
    "slug": null
  },
  {
    "city": "Bilbao",
    "population": 346746,
    "country": "Spain",
    "cca2": "ES",
    "lat": 43.2627,
    "lng": -2.92528,
    "slug": null
  },
  {
    "city": "Cordoba",
    "population": 346280,
    "country": "Spain",
    "cca2": "ES",
    "lat": 37.8915,
    "lng": -4.77275,
    "slug": null
  },
  {
    "city": "Sector 2",
    "population": 345370,
    "country": "Romania",
    "cca2": "RO",
    "lat": 44.4528,
    "lng": 26.1332,
    "slug": null
  },
  {
    "city": "Valenciennes",
    "population": 344351,
    "country": "France",
    "cca2": "FR",
    "lat": 50.35,
    "lng": 3.53333,
    "slug": null
  },
  {
    "city": "Nizhny Tagil",
    "population": 343700,
    "country": "Russia",
    "cca2": "RU",
    "lat": 57.9194,
    "lng": 59.965,
    "slug": null
  },
  {
    "city": "Podolsk",
    "population": 343650,
    "country": "Russia",
    "cca2": "RU",
    "lat": 55.4242,
    "lng": 37.5547,
    "slug": null
  },
  {
    "city": "Yakutsk",
    "population": 343581,
    "country": "Russia",
    "cca2": "RU",
    "lat": 62.0339,
    "lng": 129.733,
    "slug": null
  },
  {
    "city": "Barletta",
    "population": 342721,
    "country": "Italy",
    "cca2": "IT",
    "lat": 41.3143,
    "lng": 16.2817,
    "slug": null
  },
  {
    "city": "Malmo",
    "population": 339816,
    "country": "Sweden",
    "cca2": "SE",
    "lat": 55.6059,
    "lng": 13.0007,
    "slug": null
  },
  {
    "city": "Simferopol",
    "population": 339529,
    "country": "Ukraine",
    "cca2": "UA",
    "lat": 44.9572,
    "lng": 34.1108,
    "slug": null
  },
  {
    "city": "Bydgoszcz",
    "population": 338761,
    "country": "Poland",
    "cca2": "PL",
    "lat": 53.1235,
    "lng": 18.0076,
    "slug": null
  },
  {
    "city": "Preston",
    "population": 338446,
    "country": "United Kingdom",
    "cca2": "GB",
    "lat": 53.7628,
    "lng": -2.70452,
    "slug": null
  },
  {
    "city": "Krasnogvargeisky",
    "population": 337091,
    "country": "Russia",
    "cca2": "RU",
    "lat": 59.973,
    "lng": 30.4761,
    "slug": null
  },
  {
    "city": "Parma",
    "population": 336487,
    "country": "Italy",
    "cca2": "IT",
    "lat": 44.7994,
    "lng": 10.3262,
    "slug": null
  },
  {
    "city": "Birkenhead",
    "population": 335971,
    "country": "United Kingdom",
    "cca2": "GB",
    "lat": 53.3934,
    "lng": -3.01479,
    "slug": null
  },
  {
    "city": "Bielefeld",
    "population": 334631,
    "country": "Germany",
    "cca2": "DE",
    "lat": 52.0333,
    "lng": 8.53333,
    "slug": null
  },
  {
    "city": "Varna",
    "population": 334289,
    "country": "Bulgaria",
    "cca2": "BG",
    "lat": 43.2167,
    "lng": 27.9167,
    "slug": null
  },
  {
    "city": "Vicenza",
    "population": 334102,
    "country": "Italy",
    "cca2": "IT",
    "lat": 45.5467,
    "lng": 11.5475,
    "slug": null
  },
  {
    "city": "Nola",
    "population": 330100,
    "country": "Italy",
    "cca2": "IT",
    "lat": 40.9261,
    "lng": 14.5282,
    "slug": null
  },
  {
    "city": "Kingston upon Hull",
    "population": 328518,
    "country": "United Kingdom",
    "cca2": "GB",
    "lat": 53.7446,
    "lng": -0.33525,
    "slug": null
  },
  {
    "city": "Lublin",
    "population": 326875,
    "country": "Poland",
    "cca2": "PL",
    "lat": 51.25,
    "lng": 22.5667,
    "slug": null
  },
  {
    "city": "Smolensk",
    "population": 326841,
    "country": "Russia",
    "cca2": "RU",
    "lat": 54.7818,
    "lng": 32.0401,
    "slug": null
  },
  {
    "city": "Saransk",
    "population": 326515,
    "country": "Russia",
    "cca2": "RU",
    "lat": 54.1838,
    "lng": 45.1749,
    "slug": null
  },
  {
    "city": "Newport",
    "population": 324815,
    "country": "United Kingdom",
    "cca2": "GB",
    "lat": 52.7668,
    "lng": -2.37734,
    "slug": null
  },
  {
    "city": "Newport",
    "population": 324815,
    "country": "United Kingdom",
    "cca2": "GB",
    "lat": 51.5877,
    "lng": -2.99835,
    "slug": null
  },
  {
    "city": "Newport",
    "population": 324815,
    "country": "United Kingdom",
    "cca2": "GB",
    "lat": 50.7015,
    "lng": -1.29124,
    "slug": null
  },
  {
    "city": "Karlsruhe",
    "population": 323804,
    "country": "Germany",
    "cca2": "DE",
    "lat": 49.0094,
    "lng": 8.40444,
    "slug": null
  },
  {
    "city": "Volzhskiy",
    "population": 323293,
    "country": "Russia",
    "cca2": "RU",
    "lat": 48.7858,
    "lng": 44.7797,
    "slug": null
  },
  {
    "city": "Kherson",
    "population": 320477,
    "country": "Ukraine",
    "cca2": "UA",
    "lat": 46.6558,
    "lng": 32.6178,
    "slug": null
  },
  {
    "city": "Bonn",
    "population": 320358,
    "country": "Germany",
    "cca2": "DE",
    "lat": 50.7344,
    "lng": 7.09549,
    "slug": null
  },
  {
    "city": "Swansea",
    "population": 320236,
    "country": "United Kingdom",
    "cca2": "GB",
    "lat": 51.6208,
    "lng": -3.94323,
    "slug": null
  },
  {
    "city": "Cherepovets",
    "population": 319500,
    "country": "Russia",
    "cca2": "RU",
    "lat": 59.1333,
    "lng": 37.9,
    "slug": null
  },
  {
    "city": "Murmansk",
    "population": 319263,
    "country": "Russia",
    "cca2": "RU",
    "lat": 68.9792,
    "lng": 33.0925,
    "slug": null
  },
  {
    "city": "Islington",
    "population": 319143,
    "country": "United Kingdom",
    "cca2": "GB",
    "lat": 51.5362,
    "lng": -0.10304,
    "slug": null
  },
  {
    "city": "Vologda",
    "population": 318455,
    "country": "Russia",
    "cca2": "RU",
    "lat": 59.2239,
    "lng": 39.884,
    "slug": null
  },
  {
    "city": "Poltava",
    "population": 317847,
    "country": "Ukraine",
    "cca2": "UA",
    "lat": 49.5937,
    "lng": 34.5407,
    "slug": null
  },
  {
    "city": "Hrodna",
    "population": 317365,
    "country": "Belarus",
    "cca2": "BY",
    "lat": 53.6884,
    "lng": 23.8258,
    "slug": null
  },
  {
    "city": "Katowice",
    "population": 317316,
    "country": "Poland",
    "cca2": "PL",
    "lat": 50.2584,
    "lng": 19.0275,
    "slug": null
  },
  {
    "city": "Iasi",
    "population": 316343,
    "country": "Romania",
    "cca2": "RO",
    "lat": 47.1667,
    "lng": 27.6,
    "slug": null
  },
  {
    "city": "Lecco",
    "population": 313867,
    "country": "Italy",
    "cca2": "IT",
    "lat": 45.8559,
    "lng": 9.39704,
    "slug": null
  },
  {
    "city": "Orel",
    "population": 313814,
    "country": "Russia",
    "cca2": "RU",
    "lat": 52.9651,
    "lng": 36.0785,
    "slug": null
  },
  {
    "city": "Ostrava",
    "population": 313088,
    "country": "Czech Republic",
    "cca2": "CZ",
    "lat": 49.8346,
    "lng": 18.282,
    "slug": null
  },
  {
    "city": "Vigo",
    "population": 308323,
    "country": "Spain",
    "cca2": "ES",
    "lat": 42.2328,
    "lng": -8.72264,
    "slug": null
  },
  {
    "city": "Cluj-Napoca",
    "population": 308304,
    "country": "Romania",
    "cca2": "RO",
    "lat": 46.7667,
    "lng": 23.6,
    "slug": null
  },
  {
    "city": "Chernihiv",
    "population": 307684,
    "country": "Ukraine",
    "cca2": "UA",
    "lat": 51.5055,
    "lng": 31.2849,
    "slug": null
  },
  {
    "city": "Timisoara",
    "population": 306435,
    "country": "Romania",
    "cca2": "RO",
    "lat": 45.7537,
    "lng": 21.2257,
    "slug": null
  },
  {
    "city": "Kurgan",
    "population": 305791,
    "country": "Russia",
    "cca2": "RU",
    "lat": 55.45,
    "lng": 65.3333,
    "slug": null
  },
  {
    "city": "Craiova",
    "population": 304142,
    "country": "Romania",
    "cca2": "RO",
    "lat": 44.3167,
    "lng": 23.8,
    "slug": null
  },
  {
    "city": "Constanta",
    "population": 303399,
    "country": "Romania",
    "cca2": "RO",
    "lat": 44.1807,
    "lng": 28.6343,
    "slug": null
  },
  {
    "city": "Valladolid",
    "population": 300977,
    "country": "Spain",
    "cca2": "ES",
    "lat": 41.6552,
    "lng": -4.72372,
    "slug": null
  },
  {
    "city": "Bradford",
    "population": 299310,
    "country": "United Kingdom",
    "cca2": "GB",
    "lat": 53.7939,
    "lng": -1.75206,
    "slug": null
  },
  {
    "city": "Cherkasy",
    "population": 297568,
    "country": "Ukraine",
    "cca2": "UA",
    "lat": 49.4285,
    "lng": 32.0621,
    "slug": null
  },
  {
    "city": "Vladikavkaz",
    "population": 297145,
    "country": "Russia",
    "cca2": "RU",
    "lat": 43.0367,
    "lng": 44.6678,
    "slug": null
  },
  {
    "city": "Southend-on-Sea",
    "population": 295310,
    "country": "United Kingdom",
    "cca2": "GB",
    "lat": 51.5378,
    "lng": 0.71433,
    "slug": null
  },
  {
    "city": "Sumy",
    "population": 294456,
    "country": "Ukraine",
    "cca2": "UA",
    "lat": 50.9216,
    "lng": 34.8003,
    "slug": null
  },
  {
    "city": "Galati",
    "population": 294087,
    "country": "Romania",
    "cca2": "RO",
    "lat": 45.45,
    "lng": 28.05,
    "slug": null
  },
  {
    "city": "Bialystok",
    "population": 291855,
    "country": "Poland",
    "cca2": "PL",
    "lat": 53.1333,
    "lng": 23.1643,
    "slug": null
  },
  {
    "city": "Tambov",
    "population": 290933,
    "country": "Russia",
    "cca2": "RU",
    "lat": 52.7317,
    "lng": 41.4433,
    "slug": null
  },
  {
    "city": "Sector 4",
    "population": 287828,
    "country": "Romania",
    "cca2": "RO",
    "lat": 44.3757,
    "lng": 26.1208,
    "slug": null
  },
  {
    "city": "Marienthal",
    "population": 287101,
    "country": "Germany",
    "cca2": "DE",
    "lat": 53.5667,
    "lng": 10.0833,
    "slug": null
  },
  {
    "city": "Zhytomyr",
    "population": 282192,
    "country": "Ukraine",
    "cca2": "UA",
    "lat": 50.2649,
    "lng": 28.6767,
    "slug": null
  },
  {
    "city": "Hamburg-Nord",
    "population": 280000,
    "country": "Germany",
    "cca2": "DE",
    "lat": 53.5894,
    "lng": 9.984,
    "slug": null
  },
  {
    "city": "Yoshkar-Ola",
    "population": 279100,
    "country": "Russia",
    "cca2": "RU",
    "lat": 56.6388,
    "lng": 47.8908,
    "slug": null
  },
  {
    "city": "Taganrog",
    "population": 279056,
    "country": "Russia",
    "cca2": "RU",
    "lat": 47.2362,
    "lng": 38.8969,
    "slug": null
  },
  {
    "city": "Horlivka",
    "population": 278550,
    "country": "Ukraine",
    "cca2": "UA",
    "lat": 48.3358,
    "lng": 38.0532,
    "slug": null
  },
  {
    "city": "Kostroma",
    "population": 277656,
    "country": "Russia",
    "cca2": "RU",
    "lat": 57.7665,
    "lng": 40.9269,
    "slug": null
  },
  {
    "city": "Gijon",
    "population": 277554,
    "country": "Spain",
    "cca2": "ES",
    "lat": 43.5357,
    "lng": -5.66152,
    "slug": null
  },
  {
    "city": "Brasov",
    "population": 276088,
    "country": "Romania",
    "cca2": "RO",
    "lat": 45.6486,
    "lng": 25.6061,
    "slug": null
  },
  {
    "city": "Komsomolsk-on-Amur",
    "population": 275908,
    "country": "Russia",
    "cca2": "RU",
    "lat": 50.5503,
    "lng": 137.01,
    "slug": null
  },
  {
    "city": "Nal'chik",
    "population": 272800,
    "country": "Russia",
    "cca2": "RU",
    "lat": 43.4981,
    "lng": 43.6189,
    "slug": null
  },
  {
    "city": "Wiesbaden",
    "population": 272432,
    "country": "Germany",
    "cca2": "DE",
    "lat": 50.0826,
    "lng": 8.24932,
    "slug": null
  },
  {
    "city": "Ljubljana",
    "population": 272220,
    "country": "Slovenia",
    "cca2": "SI",
    "lat": 46.0511,
    "lng": 14.5051,
    "slug": null
  },
  {
    "city": "Sector 5",
    "population": 271575,
    "country": "Romania",
    "cca2": "RO",
    "lat": 44.3881,
    "lng": 26.0714,
    "slug": null
  },
  {
    "city": "Derby",
    "population": 270468,
    "country": "United Kingdom",
    "cca2": "GB",
    "lat": 52.9228,
    "lng": -1.47663,
    "slug": null
  },
  {
    "city": "Muenster",
    "population": 270184,
    "country": "Germany",
    "cca2": "DE",
    "lat": 51.9624,
    "lng": 7.62571,
    "slug": null
  },
  {
    "city": "Gelsenkirchen",
    "population": 270028,
    "country": "Germany",
    "cca2": "DE",
    "lat": 51.5051,
    "lng": 7.09654,
    "slug": null
  },
  {
    "city": "Sterlitamak",
    "population": 267231,
    "country": "Russia",
    "cca2": "RU",
    "lat": 53.6246,
    "lng": 55.9501,
    "slug": null
  },
  {
    "city": "Eixample",
    "population": 266477,
    "country": "Spain",
    "cca2": "ES",
    "lat": 41.389,
    "lng": 2.16179,
    "slug": null
  },
  {
    "city": "Aachen",
    "population": 265208,
    "country": "Germany",
    "cca2": "DE",
    "lat": 50.7766,
    "lng": 6.08342,
    "slug": null
  },
  {
    "city": "Petrozavodsk",
    "population": 265025,
    "country": "Russia",
    "cca2": "RU",
    "lat": 61.7849,
    "lng": 34.3469,
    "slug": null
  },
  {
    "city": "Moenchengladbach",
    "population": 261742,
    "country": "Germany",
    "cca2": "DE",
    "lat": 51.1854,
    "lng": 6.44172,
    "slug": null
  },
  {
    "city": "Plymouth",
    "population": 260203,
    "country": "United Kingdom",
    "cca2": "GB",
    "lat": 50.3715,
    "lng": -4.14305,
    "slug": null
  },
  {
    "city": "Augsburg",
    "population": 259196,
    "country": "Germany",
    "cca2": "DE",
    "lat": 48.3715,
    "lng": 10.8985,
    "slug": null
  },
  {
    "city": "Luton",
    "population": 258018,
    "country": "United Kingdom",
    "cca2": "GB",
    "lat": 51.8797,
    "lng": -0.41748,
    "slug": null
  },
  {
    "city": "L'Hospitalet de Llobregat",
    "population": 257038,
    "country": "Spain",
    "cca2": "ES",
    "lat": 41.3597,
    "lng": 2.10028,
    "slug": null
  },
  {
    "city": "Espoo",
    "population": 256760,
    "country": "Finland",
    "cca2": "FI",
    "lat": 60.2052,
    "lng": 24.6522,
    "slug": null
  },
  {
    "city": "Latina",
    "population": 256644,
    "country": "Spain",
    "cca2": "ES",
    "lat": 40.389,
    "lng": -3.74569,
    "slug": null
  },
  {
    "city": "Bratsk",
    "population": 256600,
    "country": "Russia",
    "cca2": "RU",
    "lat": 56.1325,
    "lng": 101.614,
    "slug": null
  },
  {
    "city": "Rivne",
    "population": 255106,
    "country": "Ukraine",
    "cca2": "UA",
    "lat": 50.6231,
    "lng": 26.2274,
    "slug": null
  },
  {
    "city": "Gdynia",
    "population": 253730,
    "country": "Poland",
    "cca2": "PL",
    "lat": 54.5189,
    "lng": 18.5319,
    "slug": null
  },
  {
    "city": "Carabanchel",
    "population": 253678,
    "country": "Spain",
    "cca2": "ES",
    "lat": 40.3909,
    "lng": -3.7242,
    "slug": null
  },
  {
    "city": "Wolverhampton",
    "population": 252791,
    "country": "United Kingdom",
    "cca2": "GB",
    "lat": 52.5855,
    "lng": -2.12296,
    "slug": null
  },
  {
    "city": "Eimsbuettel",
    "population": 251907,
    "country": "Germany",
    "cca2": "DE",
    "lat": 53.5742,
    "lng": 9.95679,
    "slug": null
  },
  {
    "city": "Altona",
    "population": 250192,
    "country": "Germany",
    "cca2": "DE",
    "lat": 53.55,
    "lng": 9.93333,
    "slug": null
  },
  {
    "city": "Nis",
    "population": 250000,
    "country": "Serbia",
    "cca2": "RS",
    "lat": 43.3247,
    "lng": 21.9033,
    "slug": null
  },
  {
    "city": "Kropyvnytskyi",
    "population": 249454,
    "country": "Ukraine",
    "cca2": "UA",
    "lat": 48.5132,
    "lng": 32.2597,
    "slug": null
  },
  {
    "city": "Kamianske",
    "population": 248575,
    "country": "Ukraine",
    "cca2": "UA",
    "lat": 48.5113,
    "lng": 34.6021,
    "slug": null
  },
  {
    "city": "Czestochowa",
    "population": 248125,
    "country": "Poland",
    "cca2": "PL",
    "lat": 50.7965,
    "lng": 19.1241,
    "slug": null
  },
  {
    "city": "City of Westminster",
    "population": 247614,
    "country": "United Kingdom",
    "cca2": "GB",
    "lat": 51.5,
    "lng": -0.11667,
    "slug": null
  },
  {
    "city": "Chemnitz",
    "population": 247220,
    "country": "Germany",
    "cca2": "DE",
    "lat": 50.8357,
    "lng": 12.9292,
    "slug": null
  },
  {
    "city": "Orsk",
    "population": 246836,
    "country": "Russia",
    "cca2": "RU",
    "lat": 51.2049,
    "lng": 58.5668,
    "slug": null
  },
  {
    "city": "A Coruna",
    "population": 246056,
    "country": "Spain",
    "cca2": "ES",
    "lat": 43.3713,
    "lng": -8.396,
    "slug": null
  },
  {
    "city": "Nizhnevartovsk",
    "population": 244937,
    "country": "Russia",
    "cca2": "RU",
    "lat": 60.9344,
    "lng": 76.5531,
    "slug": null
  },
  {
    "city": "Braunschweig",
    "population": 244715,
    "country": "Germany",
    "cca2": "DE",
    "lat": 52.2659,
    "lng": 10.5267,
    "slug": null
  },
  {
    "city": "Puente de Vallecas",
    "population": 244151,
    "country": "Spain",
    "cca2": "ES",
    "lat": 40.3935,
    "lng": -3.662,
    "slug": null
  },
  {
    "city": "Angarsk",
    "population": 243158,
    "country": "Russia",
    "cca2": "RU",
    "lat": 52.5367,
    "lng": 103.886,
    "slug": null
  },
  {
    "city": "Mar'ino",
    "population": 243000,
    "country": "Russia",
    "cca2": "RU",
    "lat": 55.65,
    "lng": 37.7167,
    "slug": null
  },
  {
    "city": "Novorossiysk",
    "population": 241856,
    "country": "Russia",
    "cca2": "RU",
    "lat": 44.7244,
    "lng": 37.7675,
    "slug": null
  },
  {
    "city": "Khimki",
    "population": 239967,
    "country": "Russia",
    "cca2": "RU",
    "lat": 55.897,
    "lng": 37.4297,
    "slug": null
  },
  {
    "city": "Blackpool",
    "population": 239409,
    "country": "United Kingdom",
    "cca2": "GB",
    "lat": 53.8167,
    "lng": -3.05,
    "slug": null
  },
  {
    "city": "Krefeld",
    "population": 237984,
    "country": "Germany",
    "cca2": "DE",
    "lat": 51.3364,
    "lng": 6.55381,
    "slug": null
  },
  {
    "city": "Arhus",
    "population": 237551,
    "country": "Denmark",
    "cca2": "DK",
    "lat": 56.1567,
    "lng": 10.2108,
    "slug": null
  },
  {
    "city": "Kosice",
    "population": 236563,
    "country": "Slovakia",
    "cca2": "SK",
    "lat": 48.714,
    "lng": 21.2581,
    "slug": null
  },
  {
    "city": "Chernivtsi",
    "population": 236250,
    "country": "Ukraine",
    "cca2": "UA",
    "lat": 48.2915,
    "lng": 25.9403,
    "slug": null
  },
  {
    "city": "Sant Marti",
    "population": 235719,
    "country": "Spain",
    "cca2": "ES",
    "lat": 41.4181,
    "lng": 2.19933,
    "slug": null
  },
  {
    "city": "Ternopil",
    "population": 235676,
    "country": "Ukraine",
    "cca2": "UA",
    "lat": 49.5534,
    "lng": 25.5892,
    "slug": null
  },
  {
    "city": "Gasteiz / Vitoria",
    "population": 235661,
    "country": "Spain",
    "cca2": "ES",
    "lat": 42.85,
    "lng": -2.67268,
    "slug": null
  },
  {
    "city": "Granada",
    "population": 234325,
    "country": "Spain",
    "cca2": "ES",
    "lat": 37.1882,
    "lng": -3.60667,
    "slug": null
  },
  {
    "city": "Nizhnekamsk",
    "population": 234297,
    "country": "Russia",
    "cca2": "RU",
    "lat": 55.6366,
    "lng": 51.8245,
    "slug": null
  },
  {
    "city": "Halle (Saale)",
    "population": 234107,
    "country": "Germany",
    "cca2": "DE",
    "lat": 51.4816,
    "lng": 11.9795,
    "slug": null
  },
  {
    "city": "Hamburg-Mitte",
    "population": 233144,
    "country": "Germany",
    "cca2": "DE",
    "lat": 53.55,
    "lng": 10.0167,
    "slug": null
  },
  {
    "city": "Dzerzhinsk",
    "population": 233126,
    "country": "Russia",
    "cca2": "RU",
    "lat": 56.2414,
    "lng": 43.4554,
    "slug": null
  },
  {
    "city": "Kiel",
    "population": 232758,
    "country": "Germany",
    "cca2": "DE",
    "lat": 54.3213,
    "lng": 10.1349,
    "slug": null
  },
  {
    "city": "Syktyvkar",
    "population": 230139,
    "country": "Russia",
    "cca2": "RU",
    "lat": 61.6764,
    "lng": 50.8099,
    "slug": null
  },
  {
    "city": "Elche",
    "population": 230112,
    "country": "Spain",
    "cca2": "ES",
    "lat": 38.2622,
    "lng": -0.70107,
    "slug": null
  },
  {
    "city": "Milton Keynes",
    "population": 229941,
    "country": "United Kingdom",
    "cca2": "GB",
    "lat": 52.0417,
    "lng": -0.75583,
    "slug": null
  },
  {
    "city": "Magdeburg",
    "population": 229826,
    "country": "Germany",
    "cca2": "DE",
    "lat": 52.1277,
    "lng": 11.6292,
    "slug": null
  },
  {
    "city": "Ploiesti",
    "population": 228851,
    "country": "Romania",
    "cca2": "RO",
    "lat": 44.95,
    "lng": 26.0167,
    "slug": null
  },
  {
    "city": "Ciudad Lineal",
    "population": 228171,
    "country": "Spain",
    "cca2": "ES",
    "lat": 40.445,
    "lng": -3.65132,
    "slug": null
  },
  {
    "city": "Bexley",
    "population": 228000,
    "country": "United Kingdom",
    "cca2": "GB",
    "lat": 51.4416,
    "lng": 0.14866,
    "slug": null
  },
  {
    "city": "Kremenchuk",
    "population": 227494,
    "country": "Ukraine",
    "cca2": "UA",
    "lat": 49.068,
    "lng": 33.4204,
    "slug": null
  },
  {
    "city": "Sosnowiec",
    "population": 227295,
    "country": "Poland",
    "cca2": "PL",
    "lat": 50.2868,
    "lng": 19.1038,
    "slug": null
  },
  {
    "city": "Staryy Oskol",
    "population": 226977,
    "country": "Russia",
    "cca2": "RU",
    "lat": 51.2967,
    "lng": 37.8417,
    "slug": null
  },
  {
    "city": "Neue Neustadt",
    "population": 226851,
    "country": "Germany",
    "cca2": "DE",
    "lat": 52.15,
    "lng": 11.6333,
    "slug": null
  },
  {
    "city": "Radom",
    "population": 226794,
    "country": "Poland",
    "cca2": "PL",
    "lat": 51.4025,
    "lng": 21.1471,
    "slug": null
  },
  {
    "city": "Groznyy",
    "population": 226100,
    "country": "Russia",
    "cca2": "RU",
    "lat": 43.312,
    "lng": 45.6889,
    "slug": null
  },
  {
    "city": "Sector 1",
    "population": 225453,
    "country": "Romania",
    "cca2": "RO",
    "lat": 44.4924,
    "lng": 26.0483,
    "slug": null
  },
  {
    "city": "Oviedo",
    "population": 224005,
    "country": "Spain",
    "cca2": "ES",
    "lat": 43.3603,
    "lng": -5.84476,
    "slug": null
  },
  {
    "city": "Santa Cruz de Tenerife",
    "population": 222417,
    "country": "Spain",
    "cca2": "ES",
    "lat": 28.4682,
    "lng": -16.2546,
    "slug": null
  },
  {
    "city": "Graz",
    "population": 222326,
    "country": "Austria",
    "cca2": "AT",
    "lat": 47.0667,
    "lng": 15.45,
    "slug": null
  },
  {
    "city": "Shakhty",
    "population": 221312,
    "country": "Russia",
    "cca2": "RU",
    "lat": 47.7091,
    "lng": 40.2144,
    "slug": null
  },
  {
    "city": "Blagoveshchensk",
    "population": 221296,
    "country": "Russia",
    "cca2": "RU",
    "lat": 50.2796,
    "lng": 127.54,
    "slug": null
  },
  {
    "city": "Banja Luka",
    "population": 221106,
    "country": "Bosnia and Herzegovina",
    "cca2": "BA",
    "lat": 44.7784,
    "lng": 17.1939,
    "slug": null
  },
  {
    "city": "Babruysk",
    "population": 220517,
    "country": "Belarus",
    "cca2": "BY",
    "lat": 53.1384,
    "lng": 29.2214,
    "slug": null
  },
  {
    "city": "Fuencarral-El Pardo",
    "population": 220085,
    "country": "Spain",
    "cca2": "ES",
    "lat": 40.4984,
    "lng": -3.7314,
    "slug": null
  },
  {
    "city": "Messina",
    "population": 219948,
    "country": "Italy",
    "cca2": "IT",
    "lat": 38.1939,
    "lng": 15.5526,
    "slug": null
  },
  {
    "city": "Badalona",
    "population": 219547,
    "country": "Spain",
    "cca2": "ES",
    "lat": 41.45,
    "lng": 2.24741,
    "slug": null
  },
  {
    "city": "Oberhausen",
    "population": 219176,
    "country": "Germany",
    "cca2": "DE",
    "lat": 51.4781,
    "lng": 6.8625,
    "slug": null
  },
  {
    "city": "Prokop'yevsk",
    "population": 219000,
    "country": "Russia",
    "cca2": "RU",
    "lat": 53.9059,
    "lng": 86.719,
    "slug": null
  },
  {
    "city": "Rybinsk",
    "population": 216724,
    "country": "Russia",
    "cca2": "RU",
    "lat": 58.0446,
    "lng": 38.8426,
    "slug": null
  },
  {
    "city": "Vykhino-Zhulebino",
    "population": 216000,
    "country": "Russia",
    "cca2": "RU",
    "lat": 55.702,
    "lng": 37.8118,
    "slug": null
  },
  {
    "city": "Freiburg",
    "population": 215966,
    "country": "Germany",
    "cca2": "DE",
    "lat": 47.9959,
    "lng": 7.85222,
    "slug": null
  },
  {
    "city": "Northampton",
    "population": 215963,
    "country": "United Kingdom",
    "cca2": "GB",
    "lat": 52.25,
    "lng": -0.88333,
    "slug": null
  },
  {
    "city": "Zelenograd",
    "population": 215727,
    "country": "Russia",
    "cca2": "RU",
    "lat": 55.9825,
    "lng": 37.1814,
    "slug": null
  },
  {
    "city": "Archway",
    "population": 215667,
    "country": "United Kingdom",
    "cca2": "GB",
    "lat": 51.5673,
    "lng": -0.13415,
    "slug": null
  },
  {
    "city": "Biysk",
    "population": 215430,
    "country": "Russia",
    "cca2": "RU",
    "lat": 52.5364,
    "lng": 85.2072,
    "slug": null
  },
  {
    "city": "Novi Sad",
    "population": 215400,
    "country": "Serbia",
    "cca2": "RS",
    "lat": 45.2517,
    "lng": 19.8369,
    "slug": null
  },
  {
    "city": "Velikiy Novgorod",
    "population": 215062,
    "country": "Russia",
    "cca2": "RU",
    "lat": 58.5213,
    "lng": 31.271,
    "slug": null
  },
  {
    "city": "Centralniy",
    "population": 214625,
    "country": "Russia",
    "cca2": "RU",
    "lat": 59.9311,
    "lng": 30.3607,
    "slug": null
  },
  {
    "city": "Lutsk",
    "population": 213661,
    "country": "Ukraine",
    "cca2": "UA",
    "lat": 50.7593,
    "lng": 25.3424,
    "slug": null
  },
  {
    "city": "Bergen",
    "population": 213585,
    "country": "Norway",
    "cca2": "NO",
    "lat": 60.393,
    "lng": 5.32415,
    "slug": null
  },
  {
    "city": "Braila",
    "population": 213569,
    "country": "Romania",
    "cca2": "RO",
    "lat": 45.2667,
    "lng": 27.9833,
    "slug": null
  },
  {
    "city": "Norwich",
    "population": 213166,
    "country": "United Kingdom",
    "cca2": "GB",
    "lat": 52.6278,
    "lng": 1.29834,
    "slug": null
  },
  {
    "city": "Mokotow",
    "population": 212670,
    "country": "Poland",
    "cca2": "PL",
    "lat": 52.1934,
    "lng": 21.0349,
    "slug": null
  },
  {
    "city": "Luebeck",
    "population": 212207,
    "country": "Germany",
    "cca2": "DE",
    "lat": 53.8689,
    "lng": 10.6873,
    "slug": null
  },
  {
    "city": "Cartagena",
    "population": 211996,
    "country": "Spain",
    "cca2": "ES",
    "lat": 37.6051,
    "lng": -0.98623,
    "slug": null
  },
  {
    "city": "Terrassa",
    "population": 210941,
    "country": "Spain",
    "cca2": "ES",
    "lat": 41.5667,
    "lng": 2.01667,
    "slug": null
  },
  {
    "city": "Torun",
    "population": 208717,
    "country": "Poland",
    "cca2": "PL",
    "lat": 53.0137,
    "lng": 18.5981,
    "slug": null
  },
  {
    "city": "Kielce",
    "population": 208598,
    "country": "Poland",
    "cca2": "PL",
    "lat": 50.8703,
    "lng": 20.6275,
    "slug": null
  },
  {
    "city": "Jerez de la Frontera",
    "population": 207532,
    "country": "Spain",
    "cca2": "ES",
    "lat": 36.6865,
    "lng": -6.13606,
    "slug": null
  },
  {
    "city": "Oradea",
    "population": 206614,
    "country": "Romania",
    "cca2": "RO",
    "lat": 47.0458,
    "lng": 21.9183,
    "slug": null
  },
  {
    "city": "Sabadell",
    "population": 206493,
    "country": "Spain",
    "cca2": "ES",
    "lat": 41.5433,
    "lng": 2.10942,
    "slug": null
  },
  {
    "city": "Mostoles",
    "population": 206478,
    "country": "Spain",
    "cca2": "ES",
    "lat": 40.3223,
    "lng": -3.86496,
    "slug": null
  },
  {
    "city": "Linz",
    "population": 204846,
    "country": "Austria",
    "cca2": "AT",
    "lat": 48.3064,
    "lng": 14.2861,
    "slug": null
  },
  {
    "city": "Alcala de Henares",
    "population": 204574,
    "country": "Spain",
    "cca2": "ES",
    "lat": 40.4821,
    "lng": -3.35996,
    "slug": null
  },
  {
    "city": "Ivano-Frankivsk",
    "population": 204200,
    "country": "Ukraine",
    "cca2": "UA",
    "lat": 48.9215,
    "lng": 24.7097,
    "slug": null
  },
  {
    "city": "Debrecen",
    "population": 204124,
    "country": "Hungary",
    "cca2": "HU",
    "lat": 47.5333,
    "lng": 21.6333,
    "slug": null
  },
  {
    "city": "Erfurt",
    "population": 203254,
    "country": "Germany",
    "cca2": "DE",
    "lat": 50.9787,
    "lng": 11.0328,
    "slug": null
  },
  {
    "city": "Vasyl'evsky Ostrov",
    "population": 203058,
    "country": "Russia",
    "cca2": "RU",
    "lat": 59.9409,
    "lng": 30.2538,
    "slug": null
  },
  {
    "city": "Harburg",
    "population": 202571,
    "country": "Germany",
    "cca2": "DE",
    "lat": 53.4606,
    "lng": 9.98388,
    "slug": null
  },
  {
    "city": "Pskov",
    "population": 201990,
    "country": "Russia",
    "cca2": "RU",
    "lat": 57.8136,
    "lng": 28.3496,
    "slug": null
  },
  {
    "city": "Favoriten",
    "population": 201882,
    "country": "Austria",
    "cca2": "AT",
    "lat": 48.1612,
    "lng": 16.3823,
    "slug": null
  },
  {
    "city": "Nicosia",
    "population": 200452,
    "country": "Cyprus",
    "cca2": "CY",
    "lat": 35.1753,
    "lng": 33.3642,
    "slug": null
  },
  {
    "city": "Severnyy",
    "population": 200000,
    "country": "Russia",
    "cca2": "RU",
    "lat": 55.9358,
    "lng": 37.5489,
    "slug": null
  },
  {
    "city": "Tilburg",
    "population": 199613,
    "country": "Netherlands",
    "cca2": "NL",
    "lat": 51.5555,
    "lng": 5.0913,
    "slug": null
  },
  {
    "city": "Balakovo",
    "population": 199572,
    "country": "Russia",
    "cca2": "RU",
    "lat": 52.0278,
    "lng": 47.8007,
    "slug": null
  },
  {
    "city": "Armavir",
    "population": 199548,
    "country": "Russia",
    "cca2": "RU",
    "lat": 44.9892,
    "lng": 41.1234,
    "slug": null
  },
  {
    "city": "Bila Tserkva",
    "population": 199163,
    "country": "Ukraine",
    "cca2": "UA",
    "lat": 49.8094,
    "lng": 30.1121,
    "slug": null
  },
  {
    "city": "Dudley",
    "population": 199059,
    "country": "United Kingdom",
    "cca2": "GB",
    "lat": 52.5,
    "lng": -2.08333,
    "slug": null
  },
  {
    "city": "Hagen",
    "population": 198972,
    "country": "Germany",
    "cca2": "DE",
    "lat": 51.3608,
    "lng": 7.47168,
    "slug": null
  },
  {
    "city": "Gliwice",
    "population": 198835,
    "country": "Poland",
    "cca2": "PL",
    "lat": 50.2976,
    "lng": 18.6766,
    "slug": null
  },
  {
    "city": "Pamplona",
    "population": 198491,
    "country": "Spain",
    "cca2": "ES",
    "lat": 42.8169,
    "lng": -1.64323,
    "slug": null
  },
  {
    "city": "Rostock",
    "population": 198293,
    "country": "Germany",
    "cca2": "DE",
    "lat": 54.0887,
    "lng": 12.1405,
    "slug": null
  },
  {
    "city": "Fuenlabrada",
    "population": 197836,
    "country": "Spain",
    "cca2": "ES",
    "lat": 40.2842,
    "lng": -3.79415,
    "slug": null
  },
  {
    "city": "Aberdeen",
    "population": 196670,
    "country": "United Kingdom",
    "cca2": "GB",
    "lat": 57.1437,
    "lng": -2.09814,
    "slug": null
  },
  {
    "city": "Reims",
    "population": 196565,
    "country": "France",
    "cca2": "FR",
    "lat": 49.25,
    "lng": 4.03333,
    "slug": null
  },
  {
    "city": "Engel's",
    "population": 196011,
    "country": "Russia",
    "cca2": "RU",
    "lat": 51.4839,
    "lng": 46.1053,
    "slug": null
  },
  {
    "city": "Burgas",
    "population": 195966,
    "country": "Bulgaria",
    "cca2": "BG",
    "lat": 42.5061,
    "lng": 27.4678,
    "slug": null
  },
  {
    "city": "Kassel",
    "population": 194501,
    "country": "Germany",
    "cca2": "DE",
    "lat": 51.3167,
    "lng": 9.5,
    "slug": null
  },
  {
    "city": "Severodvinsk",
    "population": 194292,
    "country": "Russia",
    "cca2": "RU",
    "lat": 64.5635,
    "lng": 39.8302,
    "slug": null
  },
  {
    "city": "Portsmouth",
    "population": 194150,
    "country": "United Kingdom",
    "cca2": "GB",
    "lat": 50.799,
    "lng": -1.09125,
    "slug": null
  },
  {
    "city": "Klaipeda",
    "population": 192307,
    "country": "Lithuania",
    "cca2": "LT",
    "lat": 55.7089,
    "lng": 21.1431,
    "slug": null
  },
  {
    "city": "Zabrze",
    "population": 192177,
    "country": "Poland",
    "cca2": "PL",
    "lat": 50.3249,
    "lng": 18.7858,
    "slug": null
  },
  {
    "city": "Zlatoust",
    "population": 191366,
    "country": "Russia",
    "cca2": "RU",
    "lat": 55.1711,
    "lng": 59.6508,
    "slug": null
  },
  {
    "city": "Cork",
    "population": 190384,
    "country": "Ireland",
    "cca2": "IE",
    "lat": 51.898,
    "lng": -8.47061,
    "slug": null
  },
  {
    "city": "Vantaa",
    "population": 190058,
    "country": "Finland",
    "cca2": "FI",
    "lat": 60.2941,
    "lng": 25.041,
    "slug": null
  },
  {
    "city": "Syzran'",
    "population": 189338,
    "country": "Russia",
    "cca2": "RU",
    "lat": 53.1585,
    "lng": 48.4681,
    "slug": null
  },
  {
    "city": "Bytom",
    "population": 189186,
    "country": "Poland",
    "cca2": "PL",
    "lat": 50.348,
    "lng": 18.9328,
    "slug": null
  },
  {
    "city": "Almeria",
    "population": 188810,
    "country": "Spain",
    "cca2": "ES",
    "lat": 36.8381,
    "lng": -2.45974,
    "slug": null
  },
  {
    "city": "Praga Poludnie",
    "population": 187845,
    "country": "Poland",
    "cca2": "PL",
    "lat": 52.2442,
    "lng": 21.0854,
    "slug": null
  },
  {
    "city": "Sutton",
    "population": 187600,
    "country": "United Kingdom",
    "cca2": "GB",
    "lat": 51.35,
    "lng": -0.2,
    "slug": null
  },
  {
    "city": "Petropavlovsk-Kamchatsky",
    "population": 187282,
    "country": "Russia",
    "cca2": "RU",
    "lat": 53.0444,
    "lng": 158.651,
    "slug": null
  },
  {
    "city": "Trieste",
    "population": 187056,
    "country": "Italy",
    "cca2": "IT",
    "lat": 45.6495,
    "lng": 13.7768,
    "slug": null
  },
  {
    "city": "Donaustadt",
    "population": 187007,
    "country": "Austria",
    "cca2": "AT",
    "lat": 48.2333,
    "lng": 16.46,
    "slug": null
  },
  {
    "city": "Leganes",
    "population": 186066,
    "country": "Spain",
    "cca2": "ES",
    "lat": 40.3272,
    "lng": -3.7635,
    "slug": null
  },
  {
    "city": "Le Havre",
    "population": 185972,
    "country": "France",
    "cca2": "FR",
    "lat": 49.4938,
    "lng": 0.10767,
    "slug": null
  },
  {
    "city": "Swindon",
    "population": 185609,
    "country": "United Kingdom",
    "cca2": "GB",
    "lat": 51.558,
    "lng": -1.78116,
    "slug": null
  },
  {
    "city": "Dun Laoghaire",
    "population": 185400,
    "country": "Ireland",
    "cca2": "IE",
    "lat": 53.2939,
    "lng": -6.13586,
    "slug": null
  },
  {
    "city": "San Sebastian",
    "population": 185357,
    "country": "Spain",
    "cca2": "ES",
    "lat": 43.3128,
    "lng": -1.97499,
    "slug": null
  },
  {
    "city": "Hamm",
    "population": 185327,
    "country": "Germany",
    "cca2": "DE",
    "lat": 51.6803,
    "lng": 7.82089,
    "slug": null
  },
  {
    "city": "Mainz",
    "population": 184997,
    "country": "Germany",
    "cca2": "DE",
    "lat": 49.9842,
    "lng": 8.2791,
    "slug": null
  },
  {
    "city": "Cergy-Pontoise",
    "population": 183430,
    "country": "France",
    "cca2": "FR",
    "lat": 49.0389,
    "lng": 2.07805,
    "slug": null
  },
  {
    "city": "Korolyov",
    "population": 183402,
    "country": "Russia",
    "cca2": "RU",
    "lat": 55.9173,
    "lng": 37.8179,
    "slug": null
  },
  {
    "city": "Sants-Montjuic",
    "population": 183120,
    "country": "Spain",
    "cca2": "ES",
    "lat": 41.3726,
    "lng": 2.1546,
    "slug": null
  },
  {
    "city": "Santander",
    "population": 182700,
    "country": "Spain",
    "cca2": "ES",
    "lat": 43.4647,
    "lng": -3.80444,
    "slug": null
  },
  {
    "city": "Kamensk-Ural'skiy",
    "population": 182500,
    "country": "Russia",
    "cca2": "RU",
    "lat": 56.4185,
    "lng": 61.9329,
    "slug": null
  },
  {
    "city": "Prato",
    "population": 181820,
    "country": "Italy",
    "cca2": "IT",
    "lat": 43.8805,
    "lng": 11.097,
    "slug": null
  },
  {
    "city": "Saarbruecken",
    "population": 181227,
    "country": "Germany",
    "cca2": "DE",
    "lat": 49.2326,
    "lng": 7.00982,
    "slug": null
  },
  {
    "city": "Groningen",
    "population": 181194,
    "country": "Netherlands",
    "cca2": "NL",
    "lat": 53.2192,
    "lng": 6.56667,
    "slug": null
  },
  {
    "city": "Crawley",
    "population": 180508,
    "country": "United Kingdom",
    "cca2": "GB",
    "lat": 51.113,
    "lng": -0.18312,
    "slug": null
  },
  {
    "city": "Castello de la Plana",
    "population": 180005,
    "country": "Spain",
    "cca2": "ES",
    "lat": 39.9857,
    "lng": -0.04935,
    "slug": null
  },
  {
    "city": "Yasenevo",
    "population": 180000,
    "country": "Russia",
    "cca2": "RU",
    "lat": 55.6069,
    "lng": 37.5199,
    "slug": null
  },
  {
    "city": "Burgos",
    "population": 178966,
    "country": "Spain",
    "cca2": "ES",
    "lat": 42.3411,
    "lng": -3.70184,
    "slug": null
  },
  {
    "city": "Amadora",
    "population": 178858,
    "country": "Portugal",
    "cca2": "PT",
    "lat": 38.7538,
    "lng": -9.23083,
    "slug": null
  },
  {
    "city": "Ipswich",
    "population": 178835,
    "country": "United Kingdom",
    "cca2": "GB",
    "lat": 52.0592,
    "lng": 1.15545,
    "slug": null
  },
  {
    "city": "Bielsko-Biala",
    "population": 176515,
    "country": "Poland",
    "cca2": "PL",
    "lat": 49.8224,
    "lng": 19.0469,
    "slug": null
  },
  {
    "city": "Yuzhno-Sakhalinsk",
    "population": 176484,
    "country": "Russia",
    "cca2": "RU",
    "lat": 46.9541,
    "lng": 142.736,
    "slug": null
  },
  {
    "city": "Almere Stad",
    "population": 176432,
    "country": "Netherlands",
    "cca2": "NL",
    "lat": 52.3703,
    "lng": 5.21413,
    "slug": null
  },
  {
    "city": "Split",
    "population": 176314,
    "country": "Croatia",
    "cca2": "HR",
    "lat": 43.5089,
    "lng": 16.4391,
    "slug": null
  },
  {
    "city": "Turku",
    "population": 175945,
    "country": "Finland",
    "cca2": "FI",
    "lat": 60.4515,
    "lng": 22.2687,
    "slug": null
  },
  {
    "city": "Wigan",
    "population": 175405,
    "country": "United Kingdom",
    "cca2": "GB",
    "lat": 53.543,
    "lng": -2.63706,
    "slug": null
  },
  {
    "city": "Kramators'k",
    "population": 173700,
    "country": "Ukraine",
    "cca2": "UA",
    "lat": 48.723,
    "lng": 37.5563,
    "slug": null
  },
  {
    "city": "Croydon",
    "population": 173314,
    "country": "United Kingdom",
    "cca2": "GB",
    "lat": 51.3833,
    "lng": -0.1,
    "slug": null
  },
  {
    "city": "Miskolc",
    "population": 172637,
    "country": "Hungary",
    "cca2": "HU",
    "lat": 48.1,
    "lng": 20.7833,
    "slug": null
  },
  {
    "city": "Walsall",
    "population": 172141,
    "country": "United Kingdom",
    "cca2": "GB",
    "lat": 52.5853,
    "lng": -1.98396,
    "slug": null
  },
  {
    "city": "Herne",
    "population": 172108,
    "country": "Germany",
    "cca2": "DE",
    "lat": 51.5388,
    "lng": 7.22572,
    "slug": null
  },
  {
    "city": "Lyublino",
    "population": 172000,
    "country": "Russia",
    "cca2": "RU",
    "lat": 55.6774,
    "lng": 37.7601,
    "slug": null
  },
  {
    "city": "Mansfield",
    "population": 171958,
    "country": "United Kingdom",
    "cca2": "GB",
    "lat": 53.1333,
    "lng": -1.2,
    "slug": null
  },
  {
    "city": "Olsztyn",
    "population": 171803,
    "country": "Poland",
    "cca2": "PL",
    "lat": 53.7799,
    "lng": 20.4942,
    "slug": null
  },
  {
    "city": "Prizren",
    "population": 171464,
    "country": "Kosovo",
    "cca2": "XK",
    "lat": 42.2139,
    "lng": 20.7397,
    "slug": null
  },
  {
    "city": "Bacau",
    "population": 171396,
    "country": "Romania",
    "cca2": "RO",
    "lat": 46.5672,
    "lng": 26.9138,
    "slug": null
  },
  {
    "city": "Oxford",
    "population": 171380,
    "country": "United Kingdom",
    "cca2": "GB",
    "lat": 51.7522,
    "lng": -1.25596,
    "slug": null
  },
  {
    "city": "Muelheim",
    "population": 171000,
    "country": "Germany",
    "cca2": "DE",
    "lat": 51.4322,
    "lng": 6.87967,
    "slug": null
  },
  {
    "city": "Albacete",
    "population": 169716,
    "country": "Spain",
    "cca2": "ES",
    "lat": 38.9942,
    "lng": -1.85643,
    "slug": null
  },
  {
    "city": "Reggio Calabria",
    "population": 169140,
    "country": "Italy",
    "cca2": "IT",
    "lat": 38.1105,
    "lng": 15.6613,
    "slug": null
  },
  {
    "city": "Arad",
    "population": 169065,
    "country": "Romania",
    "cca2": "RO",
    "lat": 46.1833,
    "lng": 21.3167,
    "slug": null
  },
  {
    "city": "Baranovichi",
    "population": 168772,
    "country": "Belarus",
    "cca2": "BY",
    "lat": 53.1327,
    "lng": 26.0139,
    "slug": null
  },
  {
    "city": "Angers",
    "population": 168279,
    "country": "France",
    "cca2": "FR",
    "lat": 47.4738,
    "lng": -0.54774,
    "slug": null
  },
  {
    "city": "Horta-Guinardo",
    "population": 168092,
    "country": "Spain",
    "cca2": "ES",
    "lat": 41.4185,
    "lng": 2.1677,
    "slug": null
  },
  {
    "city": "Patras",
    "population": 168034,
    "country": "Greece",
    "cca2": "GR",
    "lat": 38.2444,
    "lng": 21.7344,
    "slug": null
  },
  {
    "city": "Alcorcon",
    "population": 167967,
    "country": "Spain",
    "cca2": "ES",
    "lat": 40.3458,
    "lng": -3.82487,
    "slug": null
  },
  {
    "city": "Berezniki",
    "population": 167748,
    "country": "Russia",
    "cca2": "RU",
    "lat": 59.4091,
    "lng": 56.8204,
    "slug": null
  },
  {
    "city": "Volgodonsk",
    "population": 167731,
    "country": "Russia",
    "cca2": "RU",
    "lat": 47.5136,
    "lng": 42.1514,
    "slug": null
  },
  {
    "city": "Breda",
    "population": 167673,
    "country": "Netherlands",
    "cca2": "NL",
    "lat": 51.5866,
    "lng": 4.77596,
    "slug": null
  },
  {
    "city": "Pitesti",
    "population": 167669,
    "country": "Romania",
    "cca2": "RO",
    "lat": 44.85,
    "lng": 24.8667,
    "slug": null
  },
  {
    "city": "Miass",
    "population": 167500,
    "country": "Russia",
    "cca2": "RU",
    "lat": 55.045,
    "lng": 60.1083,
    "slug": null
  },
  {
    "city": "Abakan",
    "population": 167289,
    "country": "Russia",
    "cca2": "RU",
    "lat": 53.7156,
    "lng": 91.4292,
    "slug": null
  },
  {
    "city": "Neukoelln",
    "population": 167248,
    "country": "Germany",
    "cca2": "DE",
    "lat": 52.4772,
    "lng": 13.4313,
    "slug": null
  },
  {
    "city": "Getafe",
    "population": 167164,
    "country": "Spain",
    "cca2": "ES",
    "lat": 40.3057,
    "lng": -3.73295,
    "slug": null
  },
  {
    "city": "Novocherkassk",
    "population": 166974,
    "country": "Russia",
    "cca2": "RU",
    "lat": 47.421,
    "lng": 40.0919,
    "slug": null
  },
  {
    "city": "Osnabrueck",
    "population": 166462,
    "country": "Germany",
    "cca2": "DE",
    "lat": 52.2726,
    "lng": 8.0498,
    "slug": null
  },
  {
    "city": "Nou Barris",
    "population": 166310,
    "country": "Spain",
    "cca2": "ES",
    "lat": 41.4416,
    "lng": 2.17727,
    "slug": null
  },
  {
    "city": "Andorra la Vella",
    "population": 88800,
    "country": "Andorra",
    "lat": 42.5063,
    "lng": 1.5218,
    "slug": null
  },
  {
    "city": "Reykjavk",
    "population": 138772,
    "country": "Iceland",
    "lat": 64.1469868,
    "lng": -21.9407552,
    "slug": null
  },
  {
    "city": "Vaduz",
    "population": 5624,
    "country": "Liechtenstein",
    "lat": 47.1427124,
    "lng": 9.4849727,
    "slug": null
  },
  {
    "city": "Luxembourg",
    "population": 136208,
    "country": "Luxembourg",
    "lat": 49.6078987,
    "lng": 6.0540091,
    "slug": null
  },
  {
    "city": "Valletta",
    "population": 6001,
    "country": "Malta",
    "lat": 35.8984603,
    "lng": 14.5077583,
    "slug": null
  },
  {
    "city": "Podgorica",
    "population": 214265,
    "country": "Montenegro",
    "lat": 42.4255871,
    "lng": 19.2421327
  },
  {
    "city": "Yerevan",
    "population": 1100240,
    "country": "Armenia",
    "lat": 40.1533612,
    "lng": 44.4061661
  },
  {
    "city": "Baku",
    "population": 2496500,
    "country": "Azerbaijan",
    "lat": 40.3944755,
    "lng": 49.6901506
  },
  {
    "city": "Tbilisi",
    "population": 1087020,
    "country": "Georgia",
    "lat": 41.7276044,
    "lng": 44.6419551
  },
  {
    "city": "Chisinau",
    "population": 484352,
    "country": "Moldova",
    "lat": 46.9994458,
    "lng": 28.546355
  },
  {
    "city": "Monaco City",
    "population": 38341,
    "country": "Monaco",
    "lat": 43.7322418,
    "lng": 7.4129752
  },
  {
    "city": "City of San Marino",
    "population": 33572,
    "country": "San Marino",
    "lat": 43.9428483,
    "lng": 12.3776925
  },
  {
    "city": "Ankara",
    "population": 5550490,
    "country": "Turkey",
    "lat": 39.9032599,
    "lng": 32.5979557
  }
]